p4n_id,title,url,latitude,longitude,location_type,num_places,total_reviews,avg_rating,parking_min_eur,parking_max_eur,electricity_eur,ai_pros,ai_cons,top_languages,last_scraped
165654,(7555) Santiago do Cacém - Unnamed Road,https://park4night.com/en/place/165654,37.788288,-8.686092,Extra services,3.0,15,4.53,0.0,0.0,0.0,locals fill water (7); good water quality (5); nice place (4); picnic tables (3); calm and clean (2); good atmosphere (1); pleasant place (1); peaceful place (1); shade (1),difficult to fill (4); difficult access (3); no disposal (1); water quality uncertain (1); windy (1),Spanish (3); French (3); German (3); English (3); Catalan (2); Basque (1),2026-01-20 17:00:48.456407
381425,(A26-1) Sines - 3 Rua Interior do Porto de Pesca de Sines,https://park4night.com/en/place/381425,37.95135,-8.874523,Parking lot day/night,5.0,23,3.78,0.0,0.0,0.0,quiet night (10); great view (8); walk to town (4); cats (10); calm (4); safe night (1); good for visiting city (2); harbor view (2); nice view (1); sunrise view (1); fun to watch cats (1); lovely meal (1); beer (1); trash container (1); port view (1); friendly city (1); billard (1); bar (1),small parking spots (4); cats (10); industrial view (3); noise (2); trash (2); smelly (1); cat poo (1); no bathrooms (1); street lights (1); cars coming and going (1); loud music (1); people coming and going (1); slope (1); set back from road (1); factories (1); containers (1); unpleasant view (1); not for large campers (1); maneuver needed (1); pets caution (1); seagulls (1),English (5); French (5); German (5); Spanish (2); Dutch (1); Italian (1),2026-01-20 17:00:43.574271
482151,(7630-174) Odemira - Avenida do Sul,https://park4night.com/en/place/482151,37.572381,-8.6674,MH parking without services,5.0,26,3.5,0.0,0.0,0.0,quiet night (10); safe place (3); clean place (3); supermarket nearby (3); legal parking (2); free parking (2); calm area (2); good for rest (1); nature nearby (1); free internet (1),unsafe feeling (5); drunk people (4); no services (4); difficult parking (1); not pleasant (1); no space for kids (1),English (5); Portuguese (4); Dutch (4); French (4); Spanish (2); German (3); Italian (1),2026-01-20 17:00:35.924498
24042,(7645-243) Campiférias,https://park4night.com/en/place/24042,37.729698,-8.78315,Camping,50.0,169,3.43,14.0,21.0,3.3,location (30); cleanliness (25); staff (15); price (12); market (10); beach access (8); quiet (7); hot water (6); spacious pitches (5); shade (4),old facilities (30); no hot water (15); dogs not allowed (10); noisy (8); tight pitches (7); sandy pitches (6); unfriendly staff (5); no privacy (4); no toilet seats (3); barbecues allowed (3),Portuguese (10); French (8); English (7); German (5); Spanish (3); Dutch (2); Italian (1); Finnish (1),2026-01-20 17:00:02.028846
341152,(7520-151) Sines - 5 Rua Sacadura Cabral,https://park4night.com/en/place/341152,37.95435,-8.867431,Parking lot day/night,20.0,45,3.82,0.0,0.0,0.0,beach (15); town (11); toilets (10); view (7); safe (5); showers (5); shops (4); free (4); playground (3); restaurants (2); exercise area (1); tables (1); shade (1),noisy (23); loud (10); traffic (7); cobbled road (6); vehicles (4); dirty toilets (1); party (1),es (10); en (5); fr (7); de (6); it (2); pt (2),2026-01-20 16:59:56.499611
476938,(7630-174) Odemira - 13 Rua das Barreiras Vermelhas,https://park4night.com/en/place/476938,37.59756,-8.648049,Parking lot day/night,12.0,65,4.48,0.0,0.0,0.0,Quiet (24); Nice scenery (15); Clean toilets nearby (11); Close to town (10); River location (9); Free parking (5); Good for walking (4); Trash bins available (3),Small parking spaces (7); Toilets have limited hours (5); No services (4); Dogs barking (3); Parking is forbidden for campers (3); No water for RV (2); Can be scary when alone (2); Noisy during the day (1); Difficult access (1); Ground is soft (1),English (14); French (13); Dutch (8); German (7); Portuguese (5); Italian (3); Spanish (3); Polish (1),2026-01-20 16:59:52.292858
169931,(7540-195) Santiago do Cacém - 11 R. das Nogueiras,https://park4night.com/en/place/169931,38.011591,-8.697089,Extra services,20.0,27,4.11,0.0,0.0,0.0,free showers (15); clean facilities (10); nice place (6); hot showers (6); free parking (2); swimming pools (2); picnic area (2); quiet place (2); clean toilets (2),closed (5); cold showers (3); unfriendly staff (1); bad smell (1); dogs not allowed (1),German (9); English (6); Spanish (4); Portuguese (3); French (2); Dutch (1),2026-01-20 16:59:46.255725
113748,(7630-174) Santa Maria - Rua do Cemitério,https://park4night.com/en/place/113748,37.59444,-8.644278,MH parking without services,3.0,47,3.23,0.0,0.0,0.0,quiet night (11); allowed to stay (7); safe (5); close to town (4); calm (3); free (3); chocolate shop (2); nice town (2),sloping ground (24); not enough space (6); cars parked (4); noisy dogs (2); trash (2); tight spaces (2); access issues (2),nl (5); de (10); fr (7); en (7); pt (2); es (4); it (1),2026-01-20 16:59:42.177465
97590,(7630) Odemira - 3 Rua Do Comercio,https://park4night.com/en/place/97590,37.598017,-8.80642,Extra services,8.0,15,3.0,0.0,0.0,0.0,clean (6); free (4); shower works (3); toilet (2); paper (2),no electricity (2); no shower head (2); cold water (2); door does not lock (2); closed (1); not very clean (1); not much parking (1); lighting does not work (1); WC very dirty (1); no shower (1); shower turned off (1),English (3); Spanish (5); French (2); German (1); Portuguese (1),2026-01-20 16:59:37.248473
118590,(7630-174) Odemira - Unnamed Road,https://park4night.com/en/place/118590,37.598965,-8.630979,Parking lot day/night,10.0,25,3.92,0.0,0.0,0.0,Quiet night (10); Large parking space (8); Intermarché nearby (8); Services available (6); Flat surface (4),Noisy deliveries (4); Dirty/Trash (3); Not beautiful (3); Tight village road (1),French (7); Spanish (4); Portuguese (4); Dutch (2); German (3); Italian (2); English (1),2026-01-20 16:59:32.286480
86930,(7520-233) Sines - 15 Rua Paulo da Gama,https://park4night.com/en/place/86930,37.955733,-8.864568,Parking lot day/night,10.0,25,3.84,0.0,0.0,0.0,free parking (5); close to city center (5); public toilets (5); close to beach (2); playground nearby (2); flat ground (2); safe (1); good restaurant nearby (1); nice view (1); quiet (1),noisy (5); crowded (3); litter (1); no services (1); police warning (1); garbage truck (1); limited parking (1),es (7); fr (5); de (3); nl (1); en (1); eu (1),2026-01-20 16:58:58.155468
496539,(7630-174) Zambujeira do Mar - 22 Entrada da Barca,https://park4night.com/en/place/496539,37.549298,-8.791501,Extra services,2.0,5,4.0,0.0,0.0,0.0,Good water point (3); Good restaurant nearby (1); Super water quality (1),Tap not working (1); Need adapter/hose (2),German (2); French (2); English (1),2026-01-20 16:58:23.785941
8637,(7630-740) Camping Villa Park Zambujeira,https://park4night.com/en/place/8637,37.525692,-8.775558,Camping,50.0,752,4.54,15.0,35.0,1.0,Sanitäre Anlagen (199); Sauberkeit (168); Personal (119); Preis (106); Pool (87); Supermarkt (78); Lage (69); Strand (59); Ort (50); Ruhe (46),Organisation (40); Platzwahl (34); Toilettenpapier (29); WLAN (22); Lärm (19); Stromanschluss (18); Größe der Plätze (17); Entfernung zum Strand (13); Wasser (11); Müll (9),Deutsch (273); Englisch (103); Französisch (79); Spanisch (59); Portugiesisch (44); Niederländisch (20); Italienisch (10); Dänisch (1),2026-01-20 16:58:20.203694
30087,(7645-285) Camping Milfontes,https://park4night.com/en/place/30087,37.731701,-8.78301,Camping,,290,3.68,16.0,30.0,4.5,Sanitaries clean (54); Hot showers (39); Good location (34); Friendly staff (29); Close to town (25); Supermarket (23); Shady pitches (22); Good value (19); Quiet (17); Nice village (15),Pitches not delimited (33); Pool is paid (26); No toilet paper (19); No soap (15); Noisy (14); Old facilities (13); Sandy pitches (12); Unfriendly staff (10); Chaotic (9); No hot water for dishes (7),nl (16); fr (15); de (14); en (10); es (7); pt (5); it (3); eu (1),2026-01-20 16:58:08.212464
646606,"(7540-148) Santiago do Cacém, Santa Cruz e São Ba - Trilho Rio da Figueira",https://park4night.com/en/place/646606,38.01007,-8.699473,Parking lot day/night,5.0,5,4.2,0.0,0.0,0.0,clean facilities (2); quiet night (1); good view (1); free parking (1); free pool (1),no motorhome signs (1); access difficult (1),English (1); German (2); Dutch (2),2026-01-20 16:57:31.961734
553945,(7630-174) Odemira -,https://park4night.com/en/place/553945,37.654036,-8.614705,Homestays accommodation,2.0,5,5.0,10.0,10.0,0.0,Kind hosts (5); Peaceful nature (4); Close to lagoons (2); Authentic experience (1),Remote location (1),German (3); English (1),2026-01-20 16:57:28.704095
361231,(7520-206) Sines - Unnamed Road,https://park4night.com/en/place/361231,37.964267,-8.858753,MH parking without services,3.0,51,4.1,0.0,0.0,0.0,convenient for shopping (12); quiet night (11); safe place (8); laundry available (8); thank you Continente (7); flat and clean places (3); security cameras (3); close to services (2); good coffee (2); grassy area nearby (2),noisy (13); trucks (7); difficult to find (3); fridge noise (3); unclear entrance (2); feeling unsafe (1),French (13); English (9); Spanish (8); Portuguese (4); German (4); Italian (1); Dutch (1); Czech (1),2026-01-20 16:57:25.297899
335819,(7520-219) Sines - 127 Rua Júlio Gomes da Silva,https://park4night.com/en/place/335819,37.95725,-8.861942,Extra services,1.0,5,5.0,0.0,0.0,4.0,Easy to use (3); Good value (3); Fast service (2); Clean facilities (1); Comfortable waiting area (1); Coffee available (1); Multiple payment options (1),,Dutch (2); French (2); German (1); Spanish (1),2026-01-20 16:56:48.974592
53648,(7520) Sines - M1109,https://park4night.com/en/place/53648,37.926072,-8.80566,Parking lot day/night,15.0,334,4.14,0.0,0.0,0.0,beach (109); quiet (98); space (76); safe (49); night (45),no services (105); clean (49); noise (34); smell (26); dogs (24),en (103); es (67); de (57); fr (49); pt (36),2026-01-20 16:56:45.671375
372698,(7630-174) Odemira - 2b Rua Capitão Salgueiro Maia,https://park4night.com/en/place/372698,37.59991,-8.631203,Service area without parking,0.0,33,3.76,,,2.0,clean (7); water works (6); toilet emptying (5); grey water emptying (5); electricity works (4); washing machine (4); friendly staff (3); good price (3),water not working (6); dryer not working (3); electricity board trips (1); unhandy placement (1); expensive (1); yellowish water (1); parking not found (1); tight space (1); tight access road (1); no LPG (1),Portuguese (5); Dutch (5); French (5); English (4); German (3); Italian (3),2026-01-20 16:56:39.263290
311902,(7520-196) Sines - 3 Largo Nossa Senhora das Salvas,https://park4night.com/en/place/311902,37.95271,-8.874758,Parking lot day/night,2.0,6,3.67,0.0,0.0,0.0,quiet area (3); nice view (2); close to town (2); close to beach (1),close to houses (2); bright streetlights (1); barking dog (1); young people activity (1); seagulls pecking RV (1),Italian (1); German (1); English (2); French (2),2026-01-20 16:55:34.667525
317227,(7520) Sines -,https://park4night.com/en/place/317227,37.964379,-8.858146,Extra services,50.0,22,4.09,0.0,0.0,0.0,cheap (10); convenient location (7); clean (5); fast (4); good facilities (3); working (3),out of service (3); expensive (2); limited hours (2); dirty (1); few machines (1); no folding area (1),de (6); fr (6); en (3); nl (3); it (3); pl (1),2026-01-20 16:55:30.908996
475324,(7520-259) Sines - 4 Dom Pedro I,https://park4night.com/en/place/475324,37.9594,-8.857966,Extra services,10.0,3,5.0,0.0,0.0,14.0,Helpful staff (1); Good service (1),,Dutch (1); German (1); French (1),2026-01-20 16:55:27.029845
40034,(7645) Orbitur Camping Park - Sitava Milfontes,https://park4night.com/en/place/40034,37.779701,-8.78354,Camping,100.0,90,3.28,16.0,40.0,5.4,Clean facilities (16); Friendly staff (14); Close to beach (13); Nice pool (5); Good value (3); Quiet (3); Good location (2); Shady pitches (2),Old facilities (20); Expensive (17); Dirty facilities (11); Uneven pitches (7); Noisy (5); Poor wifi (4); Dusty (4); Long check-in (3); Poor staff (3); Bad access (2),German (16); French (11); English (7); Dutch (5); Italian (3); Spanish (3); Portuguese (2); Norwegian (1),2026-01-20 16:55:24.047591
475396,(7540) Santiago do Cacém - Unnamed Road,https://park4night.com/en/place/475396,38.010734,-8.685954,Parking lot day/night,3.0,4,4.25,0.0,0.0,0.0,quiet (2); historical site (2); good access (1); level ground (1),dogs barking (2); tree overhang (1); limited space (1); no facilities (1),French (2); English (2),2026-01-20 16:55:18.500112
341235,(7540) Santiago do Cacém - 14 Estrada do Fidalgo,https://park4night.com/en/place/341235,38.0073,-8.694869,MH parking without services,3.0,19,3.95,0.0,0.0,0.0,Quiet at night (10); Close to Aldi (7); Close to Intermarche (5); Free parking (3); Good for shopping (3); Flat ground (2); Nice views (2); Laundry nearby (1); Fresh bread (1),No services (4); Loud noise from delivery (2); Noisy cooling system (1); Waste disposal not found (1); Water supply issues (1); Not quite level (1); Dog issues (1),English (4); German (4); Spanish (2); Portuguese (2); Italian (2); Dutch (2),2026-01-20 16:54:44.903956
414156,(7555) Chaparral - Unnamed Road,https://park4night.com/en/place/414156,37.798014,-8.673591,Service area without parking,0.0,66,4.76,,,0.0,clean (26); free (24); water (17); service (13); thanks (12); dump (10); perfect (9); good (7); easy access (6); motorhome (5),tight (7); maneuver (5); cars parked (4); wet ground (3); water slow (3); adaptor needed (3); tight space (2); tight for motorhomes (2); tight for large (1); tight for 8 meter (1),es (14); fr (14); en (7); pt (7); de (5); it (2); nl (1); pl (1),2026-01-20 16:54:40.062295
311320,(X479+M3) Sines - Av. da Costa do Norte,https://park4night.com/en/place/311320,37.96415,-8.882271,Parking lot day/night,8.0,77,4.31,0.0,0.0,0.0,calm (20); beautiful view (19); sunset (11); quiet (10); safe (6); waves (5); space (4); rocks (3); sunrise (2),trash (14); windy (11); abandoned buildings (7); potholes (4); sloping (3); crowded (3); smell (2); mice (1); police (1),French (17); German (13); English (7); Italian (6); Spanish (4); Dutch (3); Portuguese (2); Hebrew (1),2026-01-20 16:54:04.429333
439205,(7630-174) Zambujeira do Mar - Unnamed Road,https://park4night.com/en/place/439205,37.52073,-8.788037,Extra services,0.0,22,4.05,,,,clean showers (7); warm water (6); friendly staff (4); good price (3); nice location (2); hot water (2); clean bathrooms (2); individual showers (2); beach nearby (1); sea view (1); town nearby (1); quiet (1); functional (1); attentive service (1); no time limit (1),closed (5); height restriction (3); not open (3); drainage issue (1); seasonal opening (1); closing early (2),Portuguese (7); Spanish (4); English (3); German (3); Dutch (1); French (1),2026-01-20 16:53:59.274933
564505,(7540-236) Santiago do Cacém - 14 Estrada do Fidalgo,https://park4night.com/en/place/564505,38.007381,-8.693705,Service area without parking,1.0,4,3.25,0.0,0.0,0.0,Free water disposal (1); Free water (1); Cheap diesel (1); Friendly staff (1); Tire pressure (1),Not working (1); Grey water system incomplete (1); No services (1),Spanish (1); Portuguese (1); German (2),2026-01-20 16:52:54.413373
29073,(7520) Campsites Porto Covo,https://park4night.com/en/place/29073,37.852731,-8.787784,Camping,90.0,132,3.37,3.95,11.55,4.55,clean facilities (25); friendly staff (16); close to town (15); hot showers (13); clean showers (11); clean toilets (10); good location (9); close to beach (8); quiet (7); good value (6),tight spaces (27); small pitches (18); unfriendly staff (13); many cats (12); narrow roads (10); permanent campers (9); noisy (7); pool closed (6); old facilities (5); tight access (5),German (23); French (19); English (10); Spanish (7); Portuguese (6); Italian (4); Finnish (1),2026-01-20 16:52:51.709112
45946,(7520) Sines - 1 A26-1,https://park4night.com/en/place/45946,37.949001,-8.86168,Parking lot day/night,3.0,40,3.62,0.0,0.0,0.0,close to town (13); quiet night (10); free parking (7); safe (4); close to beach (3); good for large campers (3); level parking (2); good view (1); dog friendly (1),road noise (11); no services (10); noisy port (2); bugs/mosquitoes (1),Spanish (7); French (7); Italian (5); German (5); English (4); Portuguese (1); Polish (1),2026-01-20 16:52:45.739633
420351,(7630-174) Odemira - Unnamed Road,https://park4night.com/en/place/420351,37.720535,-8.655896,Homestays accommodation,3.0,12,5.0,20.0,20.0,0.0,very friendly hosts (11); clean facilities (10); quiet location (3); tree planting initiative (3); hot water shower (3); helpful hosts (3); good value (1); allowed dogs (1); playground nearby (1); close to beach (1),slightly remote (2); not much going on (1),German (7); Portuguese (3); Dutch (1); Spanish (1),2026-01-20 16:52:41.415947
556029,(7630-574) Quinta Vicentina,https://park4night.com/en/place/556029,37.591933,-8.777318,Private car park for campers,12.0,69,4.9,15.0,18.0,15.0,friendly owners (30); clean facilities (27); animals (20); quiet (13); good value (11); hot shower (10); washing machine (9); nature (8); electricity included (7); eggs (6),uneven surface (4); no drinking water (3); language barrier (3); electricity outlet far (1); flies (1); grey water disposal tricky (1); no light in toilet (1); no lock on toilet (1),French (14); Dutch (10); English (9); Spanish (7); German (5); Portuguese (3); Italian (1),2026-01-20 16:52:36.948057
73881,(7520) Sines - Unnamed Road,https://park4night.com/en/place/73881,37.960802,-8.843592,Extra services,0.0,63,4.52,,,,friendly and helpful staff (25); gas bottle exchange/refill (20); speaks multiple languages (15); LPG installation/system (10); good price (8); knowledgeable about gas (7); solves gas problems (5); sells adapters (4); dog friendly (2),filling not possible (6); illegal to fill foreign bottles (5); not open on Sundays (2); bottle was almost empty (1); refused to fill small bottles (1); only Portuguese credit cards (1),French (14); English (11); German (7); Dutch (3); Italian (2); Swedish (1); Spanish (1),2026-01-20 16:52:31.401355
177331,(7645-065) Quinta do Rossi - Caravan Park,https://park4night.com/en/place/177331,37.808958,-8.76547,Private car park for campers,17.0,439,4.59,9.0,22.0,4.0,Friendly owners/staff (100); Clean facilities (50); Good value/price (40); Nice atmosphere/vibe (35); Hot showers (30),Limited/unclean bathrooms (30); Dogs barking/poor animal welfare (25); Lack of shade (10); Noisy animals (8); Poor water/waste disposal (7),Portuguese (150); English (100); German (80); French (50); Spanish (30),2026-01-20 16:51:56.430170
162119,(7520) Sines - 127 Rua Marquês de Pombal,https://park4night.com/en/place/162119,37.955721,-8.869707,Extra services,0.0,8,5.0,0.0,0.0,4.0,clean (6); good price (4); recommend (3); easy parking (2); wifi (2); modern facilities (1); fast service (1); coffee machine (1),cash only (2); narrow roads (1),English (3); French (1); Dutch (1); German (1); Spanish (1),2026-01-20 16:51:48.966092
495742,(7630-174) Odemira - IC4,https://park4night.com/en/place/495742,37.571892,-8.669976,Parking lot day/night,6.0,3,2.0,0.0,0.0,0.0,,strange people at night (2); noisy (2); rubbish everywhere (1); matschy (1),english (2); german (1),2026-01-20 16:51:15.073771
221510,(7520-101) Sines - 36 Rua Sacadura Cabral,https://park4night.com/en/place/221510,37.954944,-8.869151,Extra services,1.0,4,3.25,0.0,0.0,0.0,Cleanliness (2),Toilet door lock (4); Toilet paper (2); Water not working (1); No hand paper (1),German (3); English (1),2026-01-20 16:51:12.190410
110836,(7520) Sines - 47 Alameda da Paz,https://park4night.com/en/place/110836,37.95872,-8.867052,Parking lot day/night,10.0,15,3.47,0.0,0.0,0.0,close to city center (7); close to beach (3); quiet during the day (2); close to park (2); close to amenities (2); free parking (2); calm place (1); good for short stay (1); safe place (1),noisy at night (2); no facilities (3); not beautiful (2); unpaved ground (2); traffic noise (1); feels intrusive (1); puddles when raining (1),Spanish (4); Italian (3); German (3); French (2); Portuguese (2); English (2),2026-01-20 16:51:08.637945
106955,(20303) Narva - 5 Tallinn–Narva,https://park4night.com/en/place/106955,37.946879,-8.858778,Parking lot day/night,0.0,3,2.67,,,,Quiet night (1); Good for a night (1),No service found (1); Boats early morning (1),German (1); French (2),2026-01-20 16:50:04.187869
395390,(7645-224) Vila Nova de Milfontes - 26 E Rua Artur Horta,https://park4night.com/en/place/395390,37.728748,-8.781826,Extra services,0.0,3,3.67,0.0,0.0,0.0,Free services (2); Machine variety (1); Change machine (1),Longer wash times (1); Clothes still damp (1); Clothes don't smell fresh (1); Machine size misleading (1),German (1); French (2),2026-01-20 16:48:30.957038
163064,(7630-174) Odemira - 2A Rua Souza Prado,https://park4night.com/en/place/163064,37.597193,-8.642696,Extra services,,25,4.44,,,1.15,clean (13); hot water (11); friendly staff (4); good price (4); easy to find (1); no time limit (2),no electricity outlet (3); closed (3); parking difficult (2); water temperature (2); short schedule (2); staff uninterested (1); gender discrimination (1),Dutch (4); German (5); English (3); French (4); Spanish (3); Portuguese (2),2026-01-20 16:47:57.467249
424712,(7630-174) Odemira - R. César Mirandas,https://park4night.com/en/place/424712,37.59705,-8.645813,Extra services,1.0,3,3.67,0.0,0.0,0.0,toilets (2); river (2); garden (1),lack of light (1); toilets schedule (1); tap didn't work (1),English (2); French (1),2026-01-20 16:46:53.473009
304594,(7630-174) São Luís - 1 N120,https://park4night.com/en/place/304594,37.712412,-8.666083,Extra services,3.0,15,4.93,0.0,0.0,0.0,Good water pressure (6); Works well (5); Convenient location (3); Good taste (1); Clean facilities (1),Need own connector (2); Hard to find (1),Dutch (1); English (3); German (2); Polish (1); French (2); Spanish (2); Italian (2),2026-01-20 16:46:50.322260
109040,(7630-174) São Luís - 4 Rua Liga dos Amigos,https://park4night.com/en/place/109040,37.715937,-8.662397,MH parking without services,5.0,11,2.55,0.0,0.0,0.0,Quiet (3); Free (2); Flat (1); Pleasant village (1),Abandoned (3); Unappealing (2); Rundown (1); Overgrown (1); Rubbish (1); Smell (1); Dogs barking (1); People staring (1); Poo (1); Narrow village streets (1); Sloping (1); Limited places (1),French (4); English (3); Portuguese (1); German (1),2026-01-20 16:46:46.940933
185459,(7520) Parque de Campismo da Ilha do Pessegueiro,https://park4night.com/en/place/185459,37.841802,-8.780198,Camping,,81,3.3,12.0,26.5,20.5,great view (20); clean bathrooms (12); friendly staff (10); lots of space (9); good price (7),old bathrooms (28); dirty bathrooms (15); no shade (7); noisy (4); unorganized (3),Portuguese (24); French (16); English (10); German (8); Spanish (7); Dutch (3); Italian (2),2026-01-20 16:45:42.608820
130521,(7540) Santiago do Cacém - 14 Rua Vasco da Gama,https://park4night.com/en/place/130521,38.01659,-8.699258,Parking lot day/night,,9,3.0,0.0,0.0,0.0,quiet (3); visit castle (3); visit town (2); fresh water (1); waste dump (1); good water pressure (1); safe (1); showers nearby (1); toilets nearby (1),sloped (5); uneven surface (2); difficult access (1); road works (1); busy (1); no showers on site (1); no toilets on site (1); black waste problematic (1); drain blocked (1); stray animals (1),German (2); French (1); English (2); Dutch (1); Spanish (1),2026-01-20 16:45:07.257989
260875,(7520-200) Sines - 40 Rua do Forte,https://park4night.com/en/place/260875,37.951051,-8.875287,Parking lot day/night,8.0,7,3.71,0.0,0.0,0.0,quiet (3); visit center (3); peaceful (2); view (2); safe (1); easy access (1),industrial area (1); noise (1),Italian (3); Portuguese (1); Spanish (1); English (1); French (1),2026-01-20 16:44:32.518335
275662,(7540-205) Santiago do Cacém - 3 Rua Ramos da Costa,https://park4night.com/en/place/275662,38.014308,-8.692091,Extra services,1.0,9,5.0,0.0,0.0,0.0,Clean (5); WIFI (3); Near camper parking (2); Near playground (2); Fast drying (1),Cash only payment (2); A bit far (1),German (5); Dutch (2); English (1),2026-01-20 16:43:59.597181
89145,(7630) Bp petromira,https://park4night.com/en/place/89145,37.618886,-8.728706,Extra services,4.0,17,3.82,0.0,0.0,0.0,Free water refill (10); Grey water disposal (2); Air pressure check (2); Easy access (1); Friendly staff (1),Water quality concerns (5); Water disconnected (1); No grey water disposal (1); Staff not easy (1),Spanish (4); French (4); German (3); English (2); Dutch (1); Portuguese (1),2026-01-20 16:43:56.205468
20450,() Santiago do Cacém - 18 Estrada do Fidalgo,https://park4night.com/en/place/20450,38.012402,-8.69492,Free motorhome area,60.0,218,3.83,0.0,0.0,0.0,Free services (36); Quiet (35); Shade (25); Near pool (23); Near town (16),Sloping (70); Difficult access (19); Small places (13); Water not working (12); Low branches (6),es (29); fr (28); de (17); pt (15); en (10); it (5); nl (3); eu (2),2026-01-20 16:43:52.399860
370099,(7520) Sines - 18 Largo Ramos da Costa,https://park4night.com/en/place/370099,37.95525,-8.86465,Parking lot day/night,6.0,5,2.8,0.0,0.0,0.0,Central parking area (1); Safe to leave van (1); Untouched when returned (1); Authorized place (1); Relatively flat (1); Close to attractions (1),Very noisy (2); Not for large campers (2); Traffic noise (1); Seagull noise (1); Doors slamming (1); Limited space for 6m (1),Spanish (2); English (1); German (1); French (1),2026-01-20 16:43:46.906146
589090,(7645) Vila Nova de Milfontes -,https://park4night.com/en/place/589090,37.7603,-8.766879,Private car park for campers,10.0,28,4.86,10.0,10.0,0.0,quiet place (14); friendly hosts (13); peaceful spot (6); spacious (3); good value (2); stargazing (3); near beach (3); welcoming (3); calm (3); tranquil (3),no services (4); potential for improvements (1); basic services missing (1); bumpy access road (1),Dutch (3); English (4); German (4); French (4); Spanish (3); Italian (2),2026-01-20 16:43:42.662111
587424,(7520-109) Sines - A26-1,https://park4night.com/en/place/587424,37.96108,-8.88525,Parking lot day/night,6.0,22,4.27,0.0,0.0,0.0,beautiful view (15); sunset (5); calm (4); sea sound (3); fishing (1),bad smell (4); sandy ground (3); noisy (1); trash (1),French (7); English (2); German (5); Spanish (3); Italian (1); Dutch (1),2026-01-20 16:43:38.339332
217743,(7645-251) Vila Nova de Milfontes - 28 Rua António Mantas,https://park4night.com/en/place/217743,37.7263,-8.780613,Extra services,4.0,3,4.0,0.0,0.0,0.0,Cleanliness (3); Free services (3); Hot water showers (1); Sports facilities nearby (1),No showers available (2); No showers (1),Spanish (2); Portuguese (1); German (1),2026-01-20 16:43:34.349084
314760,(7555) Cercal do Alentejo - Estrada de Colos,https://park4night.com/en/place/314760,37.79885,-8.666047,Parking lot day/night,3.0,15,3.73,0.0,0.0,0.0,quiet night (7); plenty of space (5); walk from centre (3); ideal for stopover (3); green spaces (2); park for dogs (2); public toilets (1); service point (1); fitness equipment (1); benches (1); no noise (1); no prohibition (1); shade (1); water supply (1); waste disposal (1); good 4G (1); GNR passes (1); flat (1); restaurants (1); supermarkets (1),rubbish dumping (2); dead end road (1); people driving slowly (1); school nearby (1); not very clean (1); dogs barking (1); people coming to sports center (1),English (2); Spanish (4); French (4); Dutch (2); Portuguese (1),2026-01-20 16:43:30.995093
111308,(7645-296) Vila Nova de Milfontes - Rua do Moinho de Vento Loja 13,https://park4night.com/en/place/111308,37.729523,-8.781386,Extra services,2.0,15,4.2,,,2.0,Friendly staff (4); Clean facilities (3); Shopping nearby (3); Washing detergent included (3); Good machines (2),Closed on Wednesday (2); Drying takes multiple cycles (1); Limited machines (1),German (7); English (2); French (2); Italian (1); Spanish (1),2026-01-20 16:43:25.574561
556333,(7520) Sines - 11 Rua Vitalina da Silva,https://park4night.com/en/place/556333,37.851921,-8.784749,Parking lot day/night,20.0,5,4.2,0.0,0.0,0.0,quiet place (4); lit parking places (1); campervans (1); urbanization (1); chalets (1),construction garbage (1); construction debris (1); not idyllic (2),es (3); en (1); de (1),2026-01-20 16:42:51.187810
303940,(7645) Vila Nova de Milfontes - 29 Rua Das Pousadas,https://park4night.com/en/place/303940,37.729096,-8.782226,Parking lot day/night,0.0,131,4.07,0.0,0.0,0.0,hot shower (55); free shower (43); free toilet (30); clean shower (19); close to town (17); free water (16); close to beach (10); safe (8); quiet at night (7); market nearby (5),noisy (26); cold shower (14); no hot water (11); full of cars (4); no places (3); not safe (3); no water (2); no toilet (2); no parking (2); prohibited for motorhomes (2),German (26); French (21); Spanish (16); English (11); Italian (5); Portuguese (5); Dutch (2); Danish (1); Finnish (1),2026-01-20 16:42:17.613931
212659,(7520) - 8 Beco Praia da Cerca Nova,https://park4night.com/en/place/212659,37.853813,-8.785638,Extra services,0.0,17,2.88,,,0.0,free water (10); water tank refill (3); good pressure (1); friendly staff (1),no water (4); low pressure (4); difficult to use (3); closed tap (2); slow refill (2),German (5); French (4); English (3); Spanish (1); Dutch (1),2026-01-20 16:41:41.268618
26016,(7520-001) Sines - R261-5,https://park4night.com/en/place/26016,37.96526,-8.85882,Service area without parking,0.0,152,4.12,0.0,0.0,0.0,free services (58); intermarche (36); water (29); supermarket (27); gas station (24); shopping (19); dump (17); parking (16); clean (13); good price (11); washing machine (9); convenient (8); friendly staff (6); quiet (5); safe (4); adapter needed (3); mcdonalds (3),noise (19); slope (13); inconvenient (10); dirty (7); expensive (5); broken (3); smell (2); security issue (1),Portuguese (45); French (28); Spanish (19); English (13); German (11); Italian (4),2026-01-20 16:41:07.468521
99805,(7630-208) Odemira - N393,https://park4night.com/en/place/99805,37.591552,-8.666844,Extra services,0.0,18,3.0,0.0,0.0,0.0,,,,2026-01-20 16:40:01.514885
122829,(7520-151) Sines -,https://park4night.com/en/place/122829,37.955235,-8.865839,Parking lot day/night,20.0,28,3.61,0.0,0.0,0.0,Good location for visiting (10); Nice views (4); Good restaurants nearby (4); Clean public facilities (3); Close to beach (2); Quiet during the week (2); Safe parking (1); Good for smaller vehicles (1),Noisy at night (8); Difficult for large vehicles (5); Limited parking spaces (3); No services available (3); Street parking (1); Narrow streets (1),Spanish (10); English (6); French (5); German (4); Portuguese (3); Dutch (2),2026-01-20 16:36:54.861053
366490,(7540) Santiago do Cacém - 7 N261-3,https://park4night.com/en/place/366490,38.01623,-8.704698,Extra services,1.0,3,4.67,0.0,0.0,0.0,Easy access (1); Clear water (1); Good water pressure (1); Parking nearby (1),Not drinkable water (2); Need funnel for van (1),German (2); French (1),2026-01-20 16:36:20.335982
18333,(7520) Camping Costa Vizir,https://park4night.com/en/place/18333,37.856445,-8.787106,Camping,200.0,423,4.28,18.0,68.0,0.0,Sanitäre Anlagen (130); Sauber (114); Personal (99); Pool (90); Strand (88); Lage (79); Preis (76); Stellplätze (69); Sauberkeit (64); Familienfreundlich (55),Preis (69); Teuer (43); Sanitäranlagen (25); Sauberkeit (23); Stellplätze (22); WLAN (17); Baustellen (15); Schatten (14); Personal (13); Wasser (12),Deutsch (135); Englisch (59); Französisch (40); Spanisch (35); Niederländisch (22); Portugiesisch (14); Italienisch (5); Hebräisch (1),2026-01-20 16:36:17.020025
192084,(7520-196) Sines - 23 Rua dos Pescadores,https://park4night.com/en/place/192084,37.952726,-8.873515,Parking lot day/night,10.0,4,3.5,0.0,0.0,0.0,near food festival (1); near beach (1); toilets available (1); visit Sines (1); quiet at night (1); nice view (1),not too big (1); busy during day (1),Spanish (3); English (1),2026-01-20 16:36:08.466153
530678,(7520-203) Sines -,https://park4night.com/en/place/530678,37.943179,-8.855369,Parking lot day/night,1.0,4,2.75,0.0,0.0,0.0,Tranquille (2); Vue sur la mer (1); Bon endroit (1),Sale (2); Déchets (1); Bruit du port (1); Usines (1); Guêpes (1),Spanish (1); French (3),2026-01-20 16:35:35.205054
475330,(7500-220) Sines - Unnamed Road,https://park4night.com/en/place/475330,38.043854,-8.790332,Parking lot day/night,4.0,8,3.88,0.0,0.0,0.0,viel Platz (3); ruhig (3); gut für eine Nacht (3); sauber (1); einfache Zufahrt (1); Müllcontainer vorhanden (1); Einkaufsmöglichkeiten im Ort (1),wilde Hunde (2); Karting Lärm (2); Zone industrielle (1); kein Service (1),German (4); French (3); English (2),2026-01-20 16:35:01.991527
361330,(7520) Sines - 1 Avenida Vasco da Gama,https://park4night.com/en/place/361330,37.950712,-8.863269,Parking lot day/night,10.0,41,3.98,0.0,0.0,0.0,close to beach (13); quiet at night (11); close to town (10); safe (6); plenty of space (5); flat (4); good for visiting (3); picnic tables (1),road noise (11); no services (5); dirty (1); police asked to leave (1); not for motorhomes (1),es (7); fr (6); en (6); pt (2); de (2); it (2); nl (1); eu (1),2026-01-20 16:34:28.591293
23784,(7520-075) Campigir São Torpes,https://park4night.com/en/place/23784,37.908501,-8.79366,Camping,10.0,58,3.17,14.0,34.5,24.0,close to beach (15); friendly staff (11); quiet place (9); hot showers (7); clean facilities (4); good price (3); playground (2); restaurant nearby (2); water and electricity (2); new facilities (1); sea view (1),bad access road (13); outdated facilities (11); lots of cats (10); lack of shade (3); no toilet paper (3); expensive (3); dirty facilities (3); no wifi (2); small shop (2); construction (2); no toilet seats (2); no hot water for dishes (2); many long term residents (2); bad smell (1); mosquitoes (1); no pool (1); no bread service (1); no water refill (1),German (14); French (7); English (5); Spanish (4); Portuguese (4); Dutch (3); Italian (2),2026-01-20 16:34:23.664773
18105,(7520-109) Estacionamento do Miradouro da Costa do Norte,https://park4night.com/en/place/18105,37.962002,-8.88444,Parking lot day/night,12.0,115,4.32,0.0,0.0,0.0,vue sur mer (47); calme (23); tranquille (17); espace (13); coucher de soleil (12),vent (24); odeur (16); müll (10); usine (7); raffinerie (7),de (23); fr (22); nl (9); it (6); en (4); es (4); pt (3),2026-01-20 16:34:18.364170
477612,(7520-313) Sines - 9 Quinta do Meio,https://park4night.com/en/place/477612,37.95456,-8.855858,Extra services,4.0,7,5.0,0.0,0.0,0.0,clean (3); modern (2); good wifi (2); easy payment (2); ample parking (2); friendly staff (1); fast drying (1); dog friendly (1); spacious (1),,Dutch (3); English (2); German (1); Hungarian (1); Italian (1),2026-01-20 16:33:44.011858
187368,(7520) Porto Covo - 10 Rua Carlos Tê,https://park4night.com/en/place/187368,37.854163,-8.789895,Parking lot day/night,20.0,171,3.6,0.0,0.0,0.0,quiet night (30); close to town (27); close to beach (26); free parking (13); safe (10),no services (33); dirt ground (20); construction nearby (15); dirty (10); crowded (9),Portuguese (29); Spanish (25); French (17); English (5); German (5); Italian (4),2026-01-20 16:33:40.324702
460498,(7630-174) Zambujeira do Mar - 5 Rua Joao Pedro da Costa,https://park4night.com/en/place/460498,37.522676,-8.785935,Extra services,0.0,4,4.0,0.0,0.0,0.0,clean (2); shower (3); view (2),parking (2); closed (2); fine (1); toilet (2),English (2); Spanish (1); Portuguese (1),2026-01-20 16:33:05.174196
588564,(7520) Sines - Unnamed road,https://park4night.com/en/place/588564,37.958769,-8.886944,Parking lot day/night,5.0,13,4.38,0.0,0.0,0.0,Vue sur mer (7); Belle vue (3); Calme (1); Promenade (1); Endroit agréable (1),Odeur (3); Déchets (2); Chemin cabossé (1); Pas plat (1); Caméras (1); Zone portuaire (1),fr (6); de (3); es (3); pl (1),2026-01-20 16:32:31.567108
389406,(7520-106) Sines - Av. Gen. Humberto Delgado,https://park4night.com/en/place/389406,37.95956,-8.858946,Extra services,1.0,10,3.6,0.0,0.0,0.0,free water (4); good pressure (2); free service (1); easy to use (1); free air (1),out of service (3); low flow (1); not working (1),Spanish (3); English (3); Dutch (1); French (1); German (1),2026-01-20 16:31:58.087817
434834,(7555-267) Santiago do Cacém - Unnamed Road,https://park4night.com/en/place/434834,37.865338,-8.720496,Service area without parking,1.0,89,4.6,,,,free services (29); clean place (14); water filling (13); waste disposal (11); good municipality gesture (10),slow water flow (24); water pressure low (10); needs adapter (1); toilet empty area blocked (1); water tastes like bleach (1),en (10); fr (10); es (8); de (7); nl (5); pt (5); it (2); pl (1); hu (1); cs (1),2026-01-20 16:31:54.639034
490873,(7630-174) Odemira - N123,https://park4night.com/en/place/490873,37.595465,-8.633283,Extra services,1.0,3,5.0,0.0,0.0,0.0,Works well (2); Fast charging (1); Good information (1),Cannot park directly (1); Broken in the past (1),German (1); French (2),2026-01-20 16:31:19.907394
